Name,Latitude,Longitude,Website
Belfast Harbour,54.61363,-5.912717,https://www.belfast-harbour.co.uk/
Larne Port,54.849169,-5.796089,https://www.portoflarne.co.uk/
Foyle Port,55.040137,-7.26389,https://www.foyleport.com/
Warrenpoint Port,54.100215,-6.257462,https://warrenpointport.com/
Coleraine Harbour,55.135771,-6.671174,http://coleraineharbour.com/
